{
  "schemaVersion": 1,
  "coverage": {
    "name": "Los Angeles",
    "timezone": "America/Los_Angeles",
    "cities": [
      "Acton",
      "Agoura Hills",
      "Alhambra",
      "Arcadia",
      "Artesia",
      "Avalon",
      "Baldwin Park",
      "Bell",
      "Bell Gardens",
      "Bellflower",
      "Beverly Hills",
      "Burbank",
      "Carson",
      "Castaic",
      "Claremont",
      "Compton",
      "Covina",
      "Cudahy",
      "Culver City",
      "Diamond Bar",
      "Duarte",
      "East Los Angeles",
      "East Rancho Dominguez",
      "El Monte",
      "El Segundo",
      "Gardena",
      "Glendale",
      "Hacienda Heights",
      "Hawaiian Gardens",
      "Hawthorne",
      "Hermosa Beach",
      "Inglewood",
      "La Cañada Flintridge",
      "La Crescenta-Montrose",
      "La Mirada",
      "La Puente",
      "La Verne",
      "Lakewood",
      "Lancaster",
      "Lawndale",
      "Lennox",
      "Littlerock",
      "Lomita",
      "Long Beach",
      "Los Angeles",
      "Lynwood",
      "Malibu",
      "Manhattan Beach",
      "Marina Del Rey",
      "Montebello",
      "Montrose",
      "Norwalk",
      "Palmdale",
      "Paramount",
      "Pasadena",
      "Pico Rivera",
      "Pomona",
      "Quartz Hill",
      "Rosemead",
      "Rowland Heights",
      "San Dimas",
      "San Fernando",
      "San Gabriel",
      "Santa Monica",
      "South El Monte",
      "South Gate",
      "Stevenson Ranch",
      "Temple City",
      "Topanga",
      "Torrance",
      "Walnut",
      "West Covina",
      "West Hollywood",
      "Westlake Village",
      "Whittier",
      "Costa Mesa",
      "Ventura"
    ]
  },
  "defaults": {
    "windowDays": 45,
    "timezoneOffset": "-07:00",
    "userAgent": "saturday-with-friends/0.1 event-ingest"
  },
  "sources": [
    {
      "id": "la-county-library",
      "name": "LA County Library",
      "url": "https://visit.lacountylibrary.org/events",
      "city": "Los Angeles",
      "category": "Library",
      "sourceType": "communicoEvents",
      "trust": "official",
      "communicoClient": "lacountylibrary",
      "communicoApiServer": "https://api.communico.co",
      "lat": 34.0522,
      "lon": -118.2437
    },
    {
      "id": "lapl-kids",
      "name": "Los Angeles Public Library Kids Events",
      "url": "https://www.lapl.org/whats-on/calendar?field_event_audience_tid=232&field_event_family_event_value=All&items_per_page=25",
      "city": "Los Angeles",
      "category": "Library",
      "sourceType": "eventList",
      "trust": "official",
      "lat": 34.0505,
      "lon": -118.2551,
      "defaultAudienceText": "kids babies toddlers family storytime library free",
      "eventList": {
        "city": "Los Angeles",
        "cost": "Free",
        "requireFamilySignal": false
      }
    },
    {
      "id": "santa-monica-library",
      "name": "Santa Monica Public Library",
      "url": "https://smpl.bibliocommons.com/v2/events?audiences=6762e63d74596c36004cbcea",
      "city": "Santa Monica",
      "category": "Library",
      "sourceType": "biblioevents",
      "trust": "official",
      "lat": 34.0195,
      "lon": -118.4912
    },
    {
      "id": "burbank-library",
      "name": "Burbank Public Library",
      "url": "https://burbank.libnet.info/events",
      "city": "Burbank",
      "category": "Library",
      "sourceType": "communicoEvents",
      "trust": "official",
      "communicoClient": "burbank",
      "communicoApiServer": "https://api.communico.co",
      "lat": 34.1808,
      "lon": -118.309
    },
    {
      "id": "glendale-library",
      "name": "Glendale Library, Arts & Culture",
      "url": "https://glendaleca.libnet.info/events",
      "city": "Glendale",
      "category": "Library",
      "sourceType": "communicoEvents",
      "trust": "official",
      "communicoClient": "glendaleca",
      "communicoApiServer": "https://api.communico.co",
      "lat": 34.1467,
      "lon": -118.2551
    },
    {
      "id": "beverly-hills-library-calendar",
      "name": "Beverly Hills Public Library",
      "url": "https://www.beverlyhills.org/Calendar.aspx?CID=25",
      "city": "Beverly Hills",
      "category": "Library",
      "sourceType": "civicpluscal",
      "trust": "official",
      "lat": 34.0736,
      "lon": -118.4004,
      "requiresBrowserHeaders": true
    },
    {
      "id": "nhm-family-calendar",
      "name": "Natural History Museums of Los Angeles County",
      "url": "https://nhm.org/calendar",
      "city": "Los Angeles",
      "category": "Museum",
      "sourceType": "eventList",
      "trust": "official",
      "lat": 34.0169,
      "lon": -118.2888,
      "defaultAudienceText": "kids family museum natural history science",
      "eventList": {
        "venue": "Natural History Museum of Los Angeles County",
        "neighborhood": "Exposition Park",
        "city": "Los Angeles"
      }
    },
    {
      "id": "lacma-events",
      "name": "LACMA",
      "url": "https://www.lacma.org/event-calendar-by-day",
      "city": "Los Angeles",
      "category": "Museum",
      "sourceType": "html",
      "trust": "official",
      "lat": 34.0639,
      "lon": -118.3592,
      "defaultAudienceText": "kids family art museum"
    },
    {
      "id": "la-brea-tar-pits",
      "name": "La Brea Tar Pits & Museum",
      "url": "https://tarpits.org/calendar",
      "city": "Los Angeles",
      "category": "Museum",
      "sourceType": "html",
      "trust": "official",
      "lat": 34.0628,
      "lon": -118.355,
      "defaultAudienceText": "kids family museum natural history paleontology"
    },
    {
      "id": "getty-center",
      "name": "Getty Center",
      "url": "https://www.getty.edu/visit/cal/",
      "city": "Los Angeles",
      "category": "Museum",
      "sourceType": "html",
      "trust": "official",
      "lat": 34.078,
      "lon": -118.4741,
      "defaultAudienceText": "kids family art museum"
    },
    {
      "id": "skirball-cultural-center",
      "name": "Skirball Cultural Center",
      "url": "https://www.skirball.org/programs",
      "city": "Los Angeles",
      "category": "Museum",
      "sourceType": "html",
      "trust": "official",
      "lat": 34.1217,
      "lon": -118.4763,
      "defaultAudienceText": "kids family museum noah's ark"
    },
    {
      "id": "petersen-automotive-museum",
      "name": "Petersen Automotive Museum",
      "url": "https://www.petersen.org/events",
      "city": "Los Angeles",
      "category": "Museum",
      "sourceType": "html",
      "trust": "official",
      "lat": 34.0625,
      "lon": -118.3614,
      "defaultAudienceText": "kids family museum cars"
    },
    {
      "id": "griffith-observatory",
      "name": "Griffith Observatory",
      "url": "https://griffithobservatory.lacity.gov/events/",
      "city": "Los Angeles",
      "category": "Museum",
      "sourceType": "html",
      "trust": "official",
      "lat": 34.1184,
      "lon": -118.3004,
      "defaultAudienceText": "kids family astronomy planetarium stars"
    },
    {
      "id": "kidspace-childrens-museum",
      "name": "Kidspace Children's Museum",
      "url": "https://kidspacemuseum.org/calendar/",
      "city": "Pasadena",
      "category": "Museum",
      "sourceType": "html",
      "trust": "official",
      "lat": 34.1487,
      "lon": -118.143,
      "defaultAudienceText": "kids toddlers preschool family children's museum"
    },
    {
      "id": "discovery-cube-la",
      "name": "Discovery Cube Los Angeles",
      "url": "https://www.discoverycube.org/los-angeles/events/",
      "city": "Sylmar",
      "category": "Museum",
      "sourceType": "html",
      "trust": "official",
      "lat": 34.3253,
      "lon": -118.469,
      "defaultAudienceText": "kids family children's museum science"
    },
    {
      "id": "cabrillo-marine-aquarium",
      "name": "Cabrillo Marine Aquarium",
      "url": "https://cma.recreation.parks.lacity.gov/",
      "city": "San Pedro",
      "category": "Museum",
      "sourceType": "html",
      "trust": "official",
      "lat": 33.7045,
      "lon": -118.2837,
      "defaultAudienceText": "kids family aquarium marine tidepool"
    },
    {
      "id": "aquarium-of-the-pacific",
      "name": "Aquarium of the Pacific",
      "url": "https://www.aquariumofpacific.org/events",
      "city": "Long Beach",
      "category": "Museum",
      "sourceType": "html",
      "trust": "official",
      "lat": 33.7621,
      "lon": -118.1968,
      "defaultAudienceText": "kids family aquarium ocean sea life"
    },
    {
      "id": "autry-museum",
      "name": "Autry Museum of the American West",
      "url": "https://theautry.org/events",
      "city": "Los Angeles",
      "category": "Museum",
      "sourceType": "html",
      "trust": "official",
      "lat": 34.1471,
      "lon": -118.2826,
      "defaultAudienceText": "kids family museum american west history"
    },
    {
      "id": "hammer-museum",
      "name": "Hammer Museum",
      "url": "https://hammer.ucla.edu/programs-events",
      "city": "Los Angeles",
      "category": "Museum",
      "sourceType": "html",
      "trust": "official",
      "lat": 34.0589,
      "lon": -118.4438,
      "defaultAudienceText": "family art museum"
    },
    {
      "id": "the-broad",
      "name": "The Broad",
      "url": "https://www.thebroad.org/events",
      "city": "Los Angeles",
      "category": "Museum",
      "sourceType": "html",
      "trust": "official",
      "lat": 34.0544,
      "lon": -118.2509,
      "defaultAudienceText": "family art museum"
    },
    {
      "id": "norton-simon",
      "name": "Norton Simon Museum",
      "url": "https://www.nortonsimon.org/calendar",
      "city": "Pasadena",
      "category": "Museum",
      "sourceType": "html",
      "trust": "official",
      "lat": 34.1457,
      "lon": -118.1602,
      "defaultAudienceText": "family art museum"
    },
    {
      "id": "california-science-center",
      "name": "California Science Center",
      "url": "https://californiasciencecenter.org/events",
      "city": "Los Angeles",
      "category": "Museum",
      "sourceType": "html",
      "trust": "official",
      "lat": 34.0156,
      "lon": -118.2864,
      "defaultAudienceText": "kids family science museum",
      "requiresBrowserHeaders": true
    },
    {
      "id": "los-angeles-zoo",
      "name": "Los Angeles Zoo",
      "url": "https://www.lazoo.org/events",
      "city": "Los Angeles",
      "category": "Zoo",
      "sourceType": "html",
      "trust": "official",
      "lat": 34.1502,
      "lon": -118.286,
      "defaultAudienceText": "kids family zoo animals",
      "requiresBrowserHeaders": true
    },
    {
      "id": "descanso-gardens",
      "name": "Descanso Gardens",
      "url": "https://www.descansogardens.org/events",
      "city": "La Cañada Flintridge",
      "category": "Park",
      "sourceType": "html",
      "trust": "official",
      "lat": 34.2017,
      "lon": -118.2126,
      "defaultAudienceText": "kids family garden botanical outdoors",
      "requiresBrowserHeaders": true
    },
    {
      "id": "huntington-library",
      "name": "The Huntington Library, Art Museum & Botanical Gardens",
      "url": "https://www.huntington.org/calendar",
      "city": "San Marino",
      "category": "Museum",
      "sourceType": "html",
      "trust": "official",
      "lat": 34.129,
      "lon": -118.1141,
      "defaultAudienceText": "kids family museum garden botanical art",
      "requiresBrowserHeaders": true
    },
    {
      "id": "pasadena-library",
      "name": "Pasadena Public Library",
      "url": "https://www.cityofpasadena.net/library/calendar/",
      "city": "Pasadena",
      "category": "Library",
      "sourceType": "html",
      "trust": "official",
      "lat": 34.1547,
      "lon": -118.1483,
      "defaultAudienceText": "kids family library storytime free"
    },
    {
      "id": "long-beach-library",
      "name": "Long Beach Public Library",
      "url": "https://www.longbeach.gov/library/events/",
      "city": "Long Beach",
      "category": "Library",
      "sourceType": "html",
      "trust": "official",
      "lat": 33.7683,
      "lon": -118.1944,
      "defaultAudienceText": "kids family library storytime free"
    },
    {
      "id": "grand-park-la",
      "name": "Grand Park",
      "url": "https://grandparkla.org/events/",
      "city": "Los Angeles",
      "category": "Park",
      "sourceType": "html",
      "trust": "official",
      "lat": 34.0577,
      "lon": -118.2438,
      "defaultAudienceText": "kids family park downtown free outdoor"
    },
    {
      "id": "ticketmaster-los-angeles-family",
      "name": "Ticketmaster Los Angeles Family Events",
      "url": "https://app.ticketmaster.com/discovery/v2/events.json",
      "city": "Los Angeles",
      "category": "Ticketed",
      "sourceType": "ticketmaster",
      "trust": "commercial",
      "enabled": false,
      "requiresEnv": "TICKETMASTER_API_KEY"
    },
    {
      "id": "la-county-fair",
      "name": "LA County Fair",
      "url": "https://www.lacountyfair.com/",
      "city": "Pomona",
      "neighborhood": "Fairplex",
      "category": "Festival",
      "sourceType": "html",
      "trust": "official",
      "lat": 34.0861,
      "lon": -117.7658
    },
    {
      "id": "oc-fair",
      "name": "OC Fair",
      "url": "https://ocfair.com/oc-fair/",
      "city": "Costa Mesa",
      "neighborhood": "Costa Mesa",
      "category": "Festival",
      "sourceType": "html",
      "trust": "official",
      "lat": 33.6753,
      "lon": -117.9029
    },
    {
      "id": "ventura-county-fair",
      "name": "Ventura County Fair",
      "url": "https://venturacountyfair.org/",
      "city": "Ventura",
      "neighborhood": "Ventura",
      "category": "Festival",
      "sourceType": "html",
      "trust": "official",
      "lat": 34.271,
      "lon": -119.2765
    }
  ]
}
