{
  "schemaVersion": 2,
  "metroId": "atlanta",
  "note": "Auto-generated per-city plans for kids audience.",
  "plans": [
    {
      "id": "gen-day-alpharetta",
      "name": "Day out in Alpharetta",
      "summary": "3 stops in Alpharetta - Veterans Memorial Park, Bell Road Pocket Park, Caney Creek Preserve.",
      "accent": "park",
      "stopIds": [
        "osm-way-308271993",
        "osm-way-629233926",
        "osm-way-468556235"
      ],
      "eventIds": [],
      "audiences": [
        "all"
      ],
      "city": "Alpharetta",
      "lat": 34.07044,
      "lon": -84.21672,
      "generated": true
    },
    {
      "id": "gen-day-atlanta",
      "name": "Day out in Atlanta",
      "summary": "3 stops in Atlanta - The Collective Food Hall, Atlanta Botanical Garden, Anatolia Mediterranean Cafe.",
      "accent": "park",
      "stopIds": [
        "osm-node-13317513787",
        "osm-way-28909768",
        "osm-node-2698565984"
      ],
      "eventIds": [],
      "audiences": [
        "all"
      ],
      "city": "Atlanta",
      "lat": 33.7737,
      "lon": -84.38387,
      "generated": true
    },
    {
      "id": "gen-events-atlanta",
      "name": "Atlanta events",
      "summary": "Two upcoming events in Atlanta plus a nearby stop - Family Nature Program | Members-Only Hour: Play at the Museum.",
      "accent": "festival",
      "stopIds": [
        "osm-node-13317513787"
      ],
      "eventIds": [
        "atlanta-family-nature-2026-05-17",
        "atlanta-museum-family-members-only-hour-play-at-the-museum-5d5519abce"
      ],
      "audiences": [
        "all"
      ],
      "city": "Atlanta",
      "lat": 33.75777,
      "lon": -84.38817,
      "generated": true
    },
    {
      "id": "gen-day-austell",
      "name": "Day out in Austell",
      "summary": "3 stops in Austell - Tramore Park, Six Flags Over Georgia, Regal @ Austell.",
      "accent": "park",
      "stopIds": [
        "osm-relation-7929588",
        "osm-way-105155919",
        "osm-way-293580508"
      ],
      "eventIds": [],
      "audiences": [
        "all"
      ],
      "city": "Austell",
      "lat": 33.83136,
      "lon": -84.59749,
      "generated": true
    },
    {
      "id": "gen-day-college-park",
      "name": "Day out in College Park",
      "summary": "3 stops in College Park - Southside Park, Tuscon Trail Park, waterfall.",
      "accent": "park",
      "stopIds": [
        "osm-way-34775330",
        "osm-way-230468616",
        "osm-node-2639186340"
      ],
      "eventIds": [],
      "audiences": [
        "all"
      ],
      "city": "College Park",
      "lat": 33.69589,
      "lon": -84.51444,
      "generated": true
    },
    {
      "id": "gen-day-conyers",
      "name": "Day out in Conyers",
      "summary": "2 stops in Conyers - Old County Jail Museum, AMC Conyers Crossing 16.",
      "accent": "festival",
      "stopIds": [
        "osm-node-2439263693",
        "osm-way-744199727"
      ],
      "eventIds": [],
      "audiences": [
        "all"
      ],
      "city": "Conyers",
      "lat": 33.65899,
      "lon": -84.00593,
      "generated": true
    },
    {
      "id": "gen-day-covington",
      "name": "Day out in Covington",
      "summary": "2 stops in Covington - Kidz In Step Dance & Gymnastics, Planet Fitness.",
      "accent": "park",
      "stopIds": [
        "osm-way-1129642978",
        "osm-way-707488308"
      ],
      "eventIds": [],
      "audiences": [
        "all"
      ],
      "city": "Covington",
      "lat": 33.60384,
      "lon": -83.86649,
      "generated": true
    },
    {
      "id": "gen-day-decatur",
      "name": "Day out in Decatur",
      "summary": "3 stops in Decatur - Farm Burger, Rebel Teahouse, The Reading Room.",
      "accent": "park",
      "stopIds": [
        "osm-node-843830991",
        "osm-node-544023149",
        "osm-way-1279153695"
      ],
      "eventIds": [],
      "audiences": [
        "all"
      ],
      "city": "Decatur",
      "lat": 33.77534,
      "lon": -84.29726,
      "generated": true
    },
    {
      "id": "gen-day-duluth",
      "name": "Day out in Duluth",
      "summary": "3 stops in Duluth - Cortland Duluth Dog Park, Chattapoochee Dog Park, Southeastern Railway Museum.",
      "accent": "park",
      "stopIds": [
        "osm-way-1010651871",
        "osm-way-1319940567",
        "osm-way-34846005"
      ],
      "eventIds": [],
      "audiences": [
        "all"
      ],
      "city": "Duluth",
      "lat": 33.99,
      "lon": -84.12625,
      "generated": true
    },
    {
      "id": "gen-day-dunwoody",
      "name": "Day out in Dunwoody",
      "summary": "3 stops in Dunwoody - \"Doc\" Manget Memorial Aviation Park, Clairmont Park, CRNRA - Jones Bridge Unit.",
      "accent": "park",
      "stopIds": [
        "osm-way-516919004",
        "osm-way-573317225",
        "osm-way-1434690354"
      ],
      "eventIds": [],
      "audiences": [
        "all"
      ],
      "city": "Dunwoody",
      "lat": 33.91728,
      "lon": -84.28702,
      "generated": true
    },
    {
      "id": "gen-day-fayetteville",
      "name": "Day out in Fayetteville",
      "summary": "2 stops in Fayetteville - Kenwood Park, Scholar & Scribe.",
      "accent": "park",
      "stopIds": [
        "osm-way-34774407",
        "osm-node-13406927062"
      ],
      "eventIds": [],
      "audiences": [
        "all"
      ],
      "city": "Fayetteville",
      "lat": 33.49401,
      "lon": -84.47307,
      "generated": true
    },
    {
      "id": "gen-day-johns-creek",
      "name": "Day out in Johns Creek",
      "summary": "3 stops in Johns Creek - Autrey Mill Park, Workout Anytime, Life Time.",
      "accent": "park",
      "stopIds": [
        "osm-way-589352774",
        "osm-node-7986482284",
        "osm-way-317415652"
      ],
      "eventIds": [],
      "audiences": [
        "all"
      ],
      "city": "Johns Creek",
      "lat": 34.03441,
      "lon": -84.22315,
      "generated": true
    },
    {
      "id": "gen-day-kennesaw",
      "name": "Day out in Kennesaw",
      "summary": "3 stops in Kennesaw - Smith-Gilberrt Gardens, Adams Park, Commemorative Park.",
      "accent": "park",
      "stopIds": [
        "osm-way-696204101",
        "osm-way-34774188",
        "osm-way-468517860"
      ],
      "eventIds": [],
      "audiences": [
        "all"
      ],
      "city": "Kennesaw",
      "lat": 34.01921,
      "lon": -84.62174,
      "generated": true
    },
    {
      "id": "gen-day-lawrenceville",
      "name": "Day out in Lawrenceville",
      "summary": "3 stops in Lawrenceville - Ronald Reagan Park at Five Forks, Gwinnett County Bicentennial Plaza, Gwinnett History Museum.",
      "accent": "park",
      "stopIds": [
        "osm-way-1123425780",
        "osm-way-1032440162",
        "osm-node-367915564"
      ],
      "eventIds": [],
      "audiences": [
        "all"
      ],
      "city": "Lawrenceville",
      "lat": 33.93381,
      "lon": -84.01159,
      "generated": true
    },
    {
      "id": "gen-day-lilburn",
      "name": "Day out in Lilburn",
      "summary": "3 stops in Lilburn - Yellow River Post Office Site, J. B. Williams Park, Yellow River Game Ranch.",
      "accent": "park",
      "stopIds": [
        "osm-way-1089693874",
        "osm-relation-1502908",
        "osm-node-827126721"
      ],
      "eventIds": [],
      "audiences": [
        "all"
      ],
      "city": "Lilburn",
      "lat": 33.85377,
      "lon": -84.09198,
      "generated": true
    },
    {
      "id": "gen-day-marietta",
      "name": "Day out in Marietta",
      "summary": "3 stops in Marietta - Wildwood Park, Lake Park, Larry Bell Park.",
      "accent": "park",
      "stopIds": [
        "osm-way-34787874",
        "osm-node-358711000",
        "osm-way-34775648"
      ],
      "eventIds": [],
      "audiences": [
        "all"
      ],
      "city": "Marietta",
      "lat": 33.9385,
      "lon": -84.52737,
      "generated": true
    },
    {
      "id": "gen-day-roswell",
      "name": "Day out in Roswell",
      "summary": "3 stops in Roswell - Sandy Plains Park, CRNRA - Island Ford Unit, Chattahoochee Nature Center.",
      "accent": "park",
      "stopIds": [
        "osm-way-34774194",
        "osm-relation-4116661",
        "osm-way-110564819"
      ],
      "eventIds": [],
      "audiences": [
        "all"
      ],
      "city": "Roswell",
      "lat": 34.01389,
      "lon": -84.39046,
      "generated": true
    },
    {
      "id": "gen-day-sandy-springs",
      "name": "Day out in Sandy Springs",
      "summary": "3 stops in Sandy Springs - McFarlane Nature Park, Hyde Farm Park, Clay's Sports Cafe.",
      "accent": "park",
      "stopIds": [
        "osm-way-1460634898",
        "osm-way-1349094462",
        "osm-node-9102250628"
      ],
      "eventIds": [],
      "audiences": [
        "all"
      ],
      "city": "Sandy Springs",
      "lat": 33.94161,
      "lon": -84.39673,
      "generated": true
    },
    {
      "id": "gen-day-smyrna",
      "name": "Day out in Smyrna",
      "summary": "3 stops in Smyrna - Mavell Road Trail Head, Brinkley Park, G B Williams Park.",
      "accent": "park",
      "stopIds": [
        "osm-way-921188343",
        "osm-relation-6190617",
        "osm-way-463974477"
      ],
      "eventIds": [],
      "audiences": [
        "all"
      ],
      "city": "Smyrna",
      "lat": 33.86773,
      "lon": -84.51632,
      "generated": true
    },
    {
      "id": "gen-day-stone-mountain",
      "name": "Day out in Stone Mountain",
      "summary": "3 stops in Stone Mountain - Alexander Park, Cascades, Exposed rock.",
      "accent": "park",
      "stopIds": [
        "osm-way-34775921",
        "osm-node-2526041784",
        "osm-node-2526041785"
      ],
      "eventIds": [],
      "audiences": [
        "all"
      ],
      "city": "Stone Mountain",
      "lat": 33.74957,
      "lon": -84.09739,
      "generated": true
    },
    {
      "id": "gen-day-woodstock",
      "name": "Day out in Woodstock",
      "summary": "3 stops in Woodstock - Dupree Park, Woofstock Park, Regal Cherokee 16.",
      "accent": "park",
      "stopIds": [
        "osm-way-34775716",
        "osm-way-34842823",
        "osm-way-642855249"
      ],
      "eventIds": [],
      "audiences": [
        "all"
      ],
      "city": "Woodstock",
      "lat": 34.10354,
      "lon": -84.52156,
      "generated": true
    }
  ]
}
